{
	"CompanyType": {
		"Id": 1
	},
	"Contacts": [
		{
			"Emails": [
				{
					"Email": "Retha.Rowe21@hotmail.com",
					"Id": 0,
					"Name": "nqWrCQlDks",
					"Description": "iXDBvBXRRdy"
				}
			],
			"PhoneNumbers": [
				{
					"PhoneNumber": "NnbaMyn",
					"Id": 0,
					"Name": "GVRSVVswK",
					"Description": "QhvNJKsGWLy"
				}
			],
			"Title": "OLrfLKC",
			"ObjectType": "Plant",
			"Id": 0,
			"Name": "GAX",
			"Description": "HdbKJrd",
			"CurrentLifespan": {
				"Start": "2018-01-14T00:00:00",
				"End": "2018-12-14T00:00:00"
			},
			"Tags": [
				{
					"BaseObject": "QTHyfLfePvIv",
					"AttributeId": 92,
					"Dependencies": [],
					"ObjectType": "Attribute",
					"Id": 0,
					"Name": "Capacity",
					"Description": "voLSkk"
				}
			],
			"Address": {
				"Street": "tcKdnMTfCGoa",
				"StreetDetails": "UeMQNC",
				"State": {
					"Id": 1
				},
				"City": "JQcCmRdmOmv",
				"ZipCode": "tSRnQj",
				"Geocode": {
					"Lat": 60.4733,
					"Lng": -133.6302,
					"Source": "GPSService"
				},
				"ObjectType": "Address",
				"Id": 0
			}
		}
	],
	"AccountCode": "UmcTlVkqbzzX",
	"ObjectType": "Company",
	"PhoneNumbers": [
		{
			"PhoneNumber": "XtaZUA",
			"Id": 0,
			"Name": "SFjkwh",
			"Description": "zjLMNiMAv"
		}
	],
	"SMSNumbers": [
		{
			"PhoneNumber": "PnpggTgmMPvy",
			"Id": 0,
			"Name": "biOsHw",
			"Description": "gvhlCrcwFkfu"
		}
	],
	"Emails": [
		{
			"Email": "Raven30@hotmail.com",
			"Id": 0,
			"Name": "qDecPibC",
			"Description": "uBYClhjUKwG"
		}
	],
	"Name": "tZenTHy",
	"Title": "WPsuiyiMgK",
	"Address": {
		"Street": "ZEIMHKDjlSB",
		"StreetDetails": "zFuIjWMAlxLS",
		"State": {
			"Id": 1
		},
		"City": "jPqCPivog",
		"ZipCode": "ZiCSZzymfnO",
		"Geocode": {
			"Lat": -59.6933,
			"Lng": 101.1897,
			"Source": "Owner"
		},
		"ObjectType": "Address",
		"Id": 0
	},
	"CurrentLifespan": {
		"Start": "2018-01-14T00:00:00",
		"End": "2018-12-14T00:00:00"
	},
	"Id": 0,
	"Divisions": [
		{
			"Id": 12
		}
	],
	"Description": "FyyMpWSL",
	"Tags": [
		{
			"BaseObject": "wRjeuyktBjHO",
			"AttributeId": 92,
			"Dependencies": [],
			"ObjectType": "Attribute",
			"Id": 0,
			"Name": "Capacity",
			"Description": "qhbSlpHtBMcW"
		}
	],
	"__typename": "CxCompany"
}